{"type":"FeatureCollection","features":[{"type":"Feature","properties":{"OBJECTID":7485,"Type":"Campground","Detail_Type":"State Park","DISTRICT":"Rose Lake","COUNTY":"Livingston","FACILITY":"Brighton Recreation Area","Camp_type":"Equestrian","TOTAL_SITE":8,"ADA_SITES":0,"name":"Brighton Recreation Area Horseman's","Ownership":"State","Management":"DNR","Surface":"Dirt","Use_":"Recreation","Condition":"Unknown","Lat":42.50575192,"Long":-83.86798101},"geometry":{"type":"Point","coordinates":[-83.86798568632558,42.505760080800734]}},{"type":"Feature","properties":{"OBJECTID":7486,"Type":"Campground","Detail_Type":"State Park","DISTRICT":"Rose Lake","COUNTY":"Livingston","FACILITY":"Brighton Recreation Area","Camp_type":"Modern","TOTAL_SITE":144,"ADA_SITES":0,"name":"Brighton Recreation Area Bishop Lake","Ownership":"State","Management":"DNR","Surface":"Dirt","Use_":"Recreation","Condition":"Unknown","Lat":42.50217232,"Long":-83.84723023},"geometry":{"type":"Point","coordinates":[-83.84723490716465,42.502180488301924]}},{"type":"Feature","properties":{"OBJECTID":7487,"Type":"Campground","Detail_Type":"State Park","DISTRICT":"Rose Lake","COUNTY":"Livingston","FACILITY":"Brighton Recreation Area","Camp_type":"Organizational","TOTAL_SITE":10,"ADA_SITES":0,"name":"Brighton Recreation Area  ","Ownership":"State","Management":"DNR","Surface":"Dirt","Use_":"Recreation","Condition":"Unknown","Lat":42.49743063,"Long":-83.84079002},"geometry":{"type":"Point","coordinates":[-83.84079469444964,42.497438796970506]}},{"type":"Feature","properties":{"OBJECTID":7488,"Type":"Campground","Detail_Type":"State Park","DISTRICT":"Rose Lake","COUNTY":"Livingston","FACILITY":"Brighton Recreatino Area","Camp_type":"Rustic","TOTAL_SITE":25,"ADA_SITES":0,"name":"Brighton Recreatino Area Murray Lake","Ownership":"State","Management":"DNR","Surface":"Dirt","Use_":"Recreation","Condition":"Unknown","Lat":42.50723779,"Long":-83.8172831},"geometry":{"type":"Point","coordinates":[-83.81728776948651,42.50724595768851]}},{"type":"Feature","properties":{"OBJECTID":7489,"Type":"Campground","Detail_Type":"State Park","DISTRICT":"Rose Lake","COUNTY":"Livingston","FACILITY":"Brighton Recreation Area","Camp_type":"Rustic","TOTAL_SITE":25,"ADA_SITES":0,"name":"Brighton Recreation Area Appleton Lake","Ownership":"State","Management":"DNR","Surface":"Dirt","Use_":"Recreation","Condition":"Unknown","Lat":42.50657502,"Long":-83.83450939},"geometry":{"type":"Point","coordinates":[-83.83451405595257,42.50658318598992]}},{"type":"Feature","properties":{"OBJECTID":7490,"Type":"Campground","Detail_Type":"State Park","DISTRICT":"Pontiac","COUNTY":"St. Clair","FACILITY":"Algonac State Park","Camp_type":"Modern","TOTAL_SITE":219,"ADA_SITES":0,"name":"Algonac State Park Riverfront","Ownership":"State","Management":"DNR","Surface":"Dirt","Use_":"Recreation","Condition":"Unknown","Lat":42.65408454,"Long":-82.51554299},"geometry":{"type":"Point","coordinates":[-82.51554727162298,42.65409279866846]}},{"type":"Feature","properties":{"OBJECTID":7491,"Type":"Campground","Detail_Type":"State Park","DISTRICT":"Pontiac","COUNTY":"St. Clair","FACILITY":"Algonac State Park","Camp_type":"Modern","TOTAL_SITE":75,"ADA_SITES":3,"name":"Algonac State Park Wagonwheel","Ownership":"State","Management":"DNR","Surface":"Dirt","Use_":"Recreation","Condition":"Unknown","Lat":42.65613621,"Long":-82.52288717},"geometry":{"type":"Point","coordinates":[-82.52289144856749,42.656144472910796]}},{"type":"Feature","properties":{"OBJECTID":7492,"Type":"Campground","Detail_Type":"State Park","DISTRICT":"Pontiac","COUNTY":"St. Clair","FACILITY":"Algonac State Park","Camp_type":"Organizational","TOTAL_SITE":2,"ADA_SITES":0,"name":"Algonac State Park  ","Ownership":"State","Management":"DNR","Surface":"Dirt","Use_":"Recreation","Condition":"Unknown","Lat":42.65815848,"Long":-82.52582204},"geometry":{"type":"Point","coordinates":[-82.52582631771591,42.65816673484014]}},{"type":"Feature","properties":{"OBJECTID":7493,"Type":"Campground","Detail_Type":"State Park","DISTRICT":"Gaylord","COUNTY":"Cheboygan","FACILITY":"Aloha State Park","Camp_type":"Modern","TOTAL_SITE":297,"ADA_SITES":13,"name":"Aloha State Park  ","Ownership":"State","Management":"DNR","Surface":"Dirt","Use_":"Recreation","Condition":"Unknown","Lat":45.5173096,"Long":-84.46566105},"geometry":{"type":"Point","coordinates":[-84.46566623111009,45.51731823779759]}},{"type":"Feature","properties":{"OBJECTID":7494,"Type":"Campground","Detail_Type":"State Park","DISTRICT":"Baraga","COUNTY":"Baraga","FACILITY":"Baraga State Park","Camp_type":"Modern\r\nModern","TOTAL_SITE":120,"ADA_SITES":0,"name":"Baraga State Park  ","Ownership":"State","Management":"DNR","Surface":"Dirt","Use_":"Recreation","Condition":"Unknown","Lat":46.76149118,"Long":-88.50048828},"geometry":{"type":"Point","coordinates":[-88.50049487162667,46.76149975359362]}},{"type":"Feature","properties":{"OBJECTID":7495,"Type":"Campground","Detail_Type":"State Park","DISTRICT":"Bay City","COUNTY":"Bay","FACILITY":"Bay City Recreation Area","Camp_type":"Modern","TOTAL_SITE":184,"ADA_SITES":0,"name":"Bay City Recreation Area  ","Ownership":"State","Management":"DNR","Surface":"Dirt","Use_":"Recreation","Condition":"Unknown","Lat":43.66435991,"Long":-83.9020745},"geometry":{"type":"Point","coordinates":[-83.90207930166476,43.66436827160686]}},{"type":"Feature","properties":{"OBJECTID":7496,"Type":"Campground","Detail_Type":"State Park","DISTRICT":"Bay City","COUNTY":"Bay","FACILITY":"Bay City Recreation Area","Camp_type":"Organizational","TOTAL_SITE":2,"ADA_SITES":0,"name":"Bay City Recreation Area  ","Ownership":"State","Management":"DNR","Surface":"Dirt","Use_":"Recreation","Condition":"Unknown","Lat":43.66336826,"Long":-83.90163346},"geometry":{"type":"Point","coordinates":[-83.90163826674241,43.663376621560296]}},{"type":"Feature","properties":{"OBJECTID":7497,"Type":"Campground","Detail_Type":"State Park","DISTRICT":"Baraga","COUNTY":"Iron","FACILITY":"Bewabic State Park","Camp_type":"Modern","TOTAL_SITE":148,"ADA_SITES":0,"name":"Bewabic State Park  ","Ownership":"State","Management":"DNR","Surface":"Dirt","Use_":"Recreation","Condition":"Unknown","Lat":46.08877859,"Long":-88.43361627},"geometry":{"type":"Point","coordinates":[-88.43362274382537,46.08878706809206]}},{"type":"Feature","properties":{"OBJECTID":7498,"Type":"Campground","Detail_Type":"State Park","DISTRICT":"Gaylord","COUNTY":"Chippewa","FACILITY":"Brimley State Park","Camp_type":"Modern","TOTAL_SITE":272,"ADA_SITES":0,"name":"Brimley State Park  ","Ownership":"State","Management":"DNR","Surface":"Dirt","Use_":"Recreation","Condition":"Unknown","Lat":46.41668676,"Long":-84.55454688},"geometry":{"type":"Point","coordinates":[-84.5545521982612,46.41669553367741]}},{"type":"Feature","properties":{"OBJECTID":7499,"Type":"Campground","Detail_Type":"State Park","DISTRICT":"Gaylord","COUNTY":"Chippewa","FACILITY":"Brimley State Park","Camp_type":"Organizational","TOTAL_SITE":3,"ADA_SITES":0,"name":"Brimley State Park  ","Ownership":"State","Management":"DNR","Surface":"Dirt","Use_":"Recreation","Condition":"Unknown","Lat":46.41382025,"Long":-84.55969545},"geometry":{"type":"Point","coordinates":[-84.5597007676722,46.41382902479279]}},{"type":"Feature","properties":{"OBJECTID":7500,"Type":"Campground","Detail_Type":"State Park","DISTRICT":"Gaylord","COUNTY":"Cheboygan","FACILITY":"Burt Lake State Park","Camp_type":"Modern","TOTAL_SITE":303,"ADA_SITES":7,"name":"Burt Lake State Park  ","Ownership":"State","Management":"DNR","Surface":"Dirt","Use_":"Recreation","Condition":"Unknown","Lat":45.40057882,"Long":-84.62996909},"geometry":{"type":"Point","coordinates":[-84.6299743055967,45.40058743124821]}},{"type":"Feature","properties":{"OBJECTID":7501,"Type":"Campground","Detail_Type":"State Park","DISTRICT":"Gaylord","COUNTY":"Cheboygan","FACILITY":"Burt Lake State Park","Camp_type":"Organizational","TOTAL_SITE":3,"ADA_SITES":0,"name":"Burt Lake State Park  ","Ownership":"State","Management":"DNR","Surface":"Dirt","Use_":"Recreation","Condition":"Unknown","Lat":45.40307861,"Long":-84.62552633},"geometry":{"type":"Point","coordinates":[-84.62553155040223,45.40308721913122]}},{"type":"Feature","properties":{"OBJECTID":7502,"Type":"Campground","Detail_Type":"State Park","DISTRICT":"Gaylord","COUNTY":"Cheboygan","FACILITY":"Cheboygan State park","Camp_type":"Modern","TOTAL_SITE":74,"ADA_SITES":0,"name":"Cheboygan State park  ","Ownership":"State","Management":"DNR","Surface":"Dirt","Use_":"Recreation","Condition":"Unknown","Lat":45.65807302,"Long":-84.41887034},"geometry":{"type":"Point","coordinates":[-84.41887551985636,45.65808168183408]}},{"type":"Feature","properties":{"OBJECTID":7503,"Type":"Campground","Detail_Type":"State Park","DISTRICT":"Gaylord","COUNTY":"Cheboygan","FACILITY":"Cheboygan State Park","Camp_type":"Organizational","TOTAL_SITE":6,"ADA_SITES":0,"name":"Cheboygan State Park  ","Ownership":"State","Management":"DNR","Surface":"Dirt","Use_":"Recreation","Condition":"Unknown","Lat":45.64742031,"Long":-84.41919224},"geometry":{"type":"Point","coordinates":[-84.4191974203677,45.647428972831726]}},{"type":"Feature","properties":{"OBJECTID":7504,"Type":"Campground","Detail_Type":"State Park","DISTRICT":"Gaylord","COUNTY":"Montmorency","FACILITY":"Clear Lake State Park","Camp_type":"Modern","TOTAL_SITE":199,"ADA_SITES":0,"name":"Clear Lake State Park  ","Ownership":"State","Management":"DNR","Surface":"Dirt","Use_":"Recreation","Condition":"Unknown","Lat":45.1320138,"Long":-84.18392116},"geometry":{"type":"Point","coordinates":[-84.18392621250335,45.13202238921371]}},{"type":"Feature","properties":{"OBJECTID":7505,"Type":"Campground","Detail_Type":"State Park","DISTRICT":"Gaylord","COUNTY":"Montmorency","FACILITY":"Clear Lake State Park","Camp_type":"Organizational","TOTAL_SITE":3,"ADA_SITES":0,"name":"Clear Lake State Park  ","Ownership":"State","Management":"DNR","Surface":"Dirt","Use_":"Recreation","Condition":"Unknown","Lat":45.13224243,"Long":-84.18762811},"geometry":{"type":"Point","coordinates":[-84.18763316168547,45.132251018205906]}},{"type":"Feature","properties":{"OBJECTID":7506,"Type":"Campground","Detail_Type":"State Park","DISTRICT":"Baraga","COUNTY":"Delta","FACILITY":"Fayette State Park","Camp_type":"Semi Modern","TOTAL_SITE":63,"ADA_SITES":2,"name":"Fayette State Park  ","Ownership":"State","Management":"DNR","Surface":"Dirt","Use_":"Recreation","Condition":"Unknown","Lat":45.71164952,"Long":-86.66914922},"geometry":{"type":"Point","coordinates":[-86.66915510419287,45.711658058650954]}},{"type":"Feature","properties":{"OBJECTID":7507,"Type":"Campground","Detail_Type":"State Park","DISTRICT":"Gaylord","COUNTY":"Charlevoix","FACILITY":"Fisherman's Island State Park","Camp_type":"Rustic","TOTAL_SITE":35,"ADA_SITES":0,"name":"Fisherman's Island State Park North","Ownership":"State","Management":"DNR","Surface":"Dirt","Use_":"Recreation","Condition":"Unknown","Lat":45.30547578,"Long":-85.31160276},"geometry":{"type":"Point","coordinates":[-85.31160817459146,45.305484330073675]}},{"type":"Feature","properties":{"OBJECTID":7508,"Type":"Campground","Detail_Type":"State Park","DISTRICT":"Gaylord","COUNTY":"Charlevoix","FACILITY":"Fisherman's Island State Park","Camp_type":"Rustic","TOTAL_SITE":35,"ADA_SITES":0,"name":"Fisherman's Island State Park South","Ownership":"State","Management":"DNR","Surface":"Dirt","Use_":"Recreation","Condition":"Unknown","Lat":45.28992061,"Long":-85.33422516},"geometry":{"type":"Point","coordinates":[-85.33423058401625,45.289929159473495]}},{"type":"Feature","properties":{"OBJECTID":7509,"Type":"Campground","Detail_Type":"State Park","DISTRICT":"Plainwell","COUNTY":"Kalamazoo","FACILITY":"Fort Custer Recreation Area","Camp_type":"Modern","TOTAL_SITE":217,"ADA_SITES":11,"name":"Fort Custer Recreation Area  ","Ownership":"State","Management":"DNR","Surface":"Dirt","Use_":"Recreation","Condition":"Unknown","Lat":42.31778604,"Long":-85.34841758},"geometry":{"type":"Point","coordinates":[-85.34842269694269,42.31779409696385]}},{"type":"Feature","properties":{"OBJECTID":7510,"Type":"Campground","Detail_Type":"State Park","DISTRICT":"Plainwell","COUNTY":"Kalamazoo","FACILITY":"Fort Custer Recreation Area","Camp_type":"Organizational","TOTAL_SITE":5,"ADA_SITES":0,"name":"Fort Custer Recreation Area  ","Ownership":"State","Management":"DNR","Surface":"Dirt","Use_":"Recreation","Condition":"Unknown","Lat":42.32416584,"Long":-85.35758658},"geometry":{"type":"Point","coordinates":[-85.35759169152549,42.32417389275454]}},{"type":"Feature","properties":{"OBJECTID":7511,"Type":"Campground","Detail_Type":"State Park","DISTRICT":"Plainwell","COUNTY":"Kalamazoo","FACILITY":"Fort Custer Recreation Area","Camp_type":"Organizational","TOTAL_SITE":2,"ADA_SITES":0,"name":"Fort Custer Recreation Area  ","Ownership":"State","Management":"DNR","Surface":"Dirt","Use_":"Recreation","Condition":"Unknown","Lat":42.31314746,"Long":-85.35695112},"geometry":{"type":"Point","coordinates":[-85.35695623077068,42.31315551676135]}},{"type":"Feature","properties":{"OBJECTID":7512,"Type":"Campground","Detail_Type":"State Park","DISTRICT":"Baraga","COUNTY":"Keweenaw","FACILITY":"Fort Wilkins State Park","Camp_type":"Modern","TOTAL_SITE":81,"ADA_SITES":0,"name":"Fort Wilkins State Park East","Ownership":"State","Management":"DNR","Surface":"Dirt","Use_":"Recreation","Condition":"Unknown","Lat":47.46606558,"Long":-87.85913657},"geometry":{"type":"Point","coordinates":[-87.85914305779087,47.466074305957946]}},{"type":"Feature","properties":{"OBJECTID":7513,"Type":"Campground","Detail_Type":"State Park","DISTRICT":"Baraga","COUNTY":"Keweenaw","FACILITY":"Fort Wilkins State Park","Camp_type":"Modern","TOTAL_SITE":78,"ADA_SITES":0,"name":"Fort Wilkins State Park West","Ownership":"State","Management":"DNR","Surface":"Dirt","Use_":"Recreation","Condition":"Unknown","Lat":47.46643727,"Long":-87.86969552},"geometry":{"type":"Point","coordinates":[-87.86970201132998,47.466445995988266]}},{"type":"Feature","properties":{"OBJECTID":7514,"Type":"Campground","Detail_Type":"State Park","DISTRICT":"Baraga","COUNTY":"Keweenaw","FACILITY":"Fort Wilkins State Park","Camp_type":"Organizational","TOTAL_SITE":5,"ADA_SITES":0,"name":"Fort Wilkins State Park  ","Ownership":"State","Management":"DNR","Surface":"Dirt","Use_":"Recreation","Condition":"Unknown","Lat":47.46600117,"Long":-87.87754529},"geometry":{"type":"Point","coordinates":[-87.87755178494064,47.46600988612787]}},{"type":"Feature","properties":{"OBJECTID":7515,"Type":"Campground","Detail_Type":"State Park","DISTRICT":"Plainwell","COUNTY":"Ottawa","FACILITY":"Grand Haven State Park","Camp_type":"Modern","TOTAL_SITE":198,"ADA_SITES":5,"name":"Grand Haven State Park  ","Ownership":"State","Management":"DNR","Surface":"Dirt","Use_":"Recreation","Condition":"Unknown","Lat":43.05693187,"Long":-86.24806085},"geometry":{"type":"Point","coordinates":[-86.24806630666842,43.05693999960122]}},{"type":"Feature","properties":{"OBJECTID":7516,"Type":"Campground","Detail_Type":"State Park","DISTRICT":"Roscommon","COUNTY":"Alcona","FACILITY":"Harrisville State Park","Camp_type":"Modern","TOTAL_SITE":195,"ADA_SITES":0,"name":"Harrisville State Park  ","Ownership":"State","Management":"DNR","Surface":"Dirt","Use_":"Recreation","Condition":"Unknown","Lat":44.64895487,"Long":-83.29403493},"geometry":{"type":"Point","coordinates":[-83.29403964620833,44.6489634295337]}},{"type":"Feature","properties":{"OBJECTID":7517,"Type":"Campground","Detail_Type":"State Park","DISTRICT":"Roscommon","COUNTY":"Crawford","FACILITY":"Hartwick Pines State Park","Camp_type":"Modern","TOTAL_SITE":103,"ADA_SITES":6,"name":"Hartwick Pines State Park  ","Ownership":"State","Management":"DNR","Surface":"Dirt","Use_":"Recreation","Condition":"Unknown","Lat":44.73765116,"Long":-84.6849195},"geometry":{"type":"Point","coordinates":[-84.68492466407803,44.73765966144391]}},{"type":"Feature","properties":{"OBJECTID":7518,"Type":"Campground","Detail_Type":"State Park","DISTRICT":"Roscommon","COUNTY":"Crawford","FACILITY":"Hartwick Pines State Park","Camp_type":"Organizational","TOTAL_SITE":9,"ADA_SITES":0,"name":"Hartwick Pines State Park  ","Ownership":"State","Management":"DNR","Surface":"Dirt","Use_":"Recreation","Condition":"Unknown","Lat":44.73313759,"Long":-84.64448796},"geometry":{"type":"Point","coordinates":[-84.64449310607444,44.73314608958642]}},{"type":"Feature","properties":{"OBJECTID":7519,"Type":"Campground","Detail_Type":"State Park","DISTRICT":"Pontiac","COUNTY":"Oakland","FACILITY":"Highland Recreation Area","Camp_type":"Equestrian","TOTAL_SITE":25,"ADA_SITES":0,"name":"Highland Recreation Area  ","Ownership":"State","Management":"DNR","Surface":"Dirt","Use_":"Recreation","Condition":"Unknown","Lat":42.63556604,"Long":-83.54387884},"geometry":{"type":"Point","coordinates":[-83.5438834377037,42.635574242306944]}},{"type":"Feature","properties":{"OBJECTID":7520,"Type":"Campground","Detail_Type":"State Park","DISTRICT":"Pontiac","COUNTY":"Oakland","FACILITY":"Highland Recreation Area","Camp_type":"Organizational","TOTAL_SITE":6,"ADA_SITES":0,"name":"Highland Recreation Area  ","Ownership":"State","Management":"DNR","Surface":"Dirt","Use_":"Recreation","Condition":"Unknown","Lat":42.63281093,"Long":-83.55623314},"geometry":{"type":"Point","coordinates":[-83.55623774054138,42.63281912919967]}},{"type":"Feature","properties":{"OBJECTID":7521,"Type":"Campground","Detail_Type":"State Park","DISTRICT":"Gaylord","COUNTY":"Presque Isle","FACILITY":"Hoeft State Park","Camp_type":"Modern","TOTAL_SITE":141,"ADA_SITES":0,"name":"Hoeft State Park  ","Ownership":"State","Management":"DNR","Surface":"Dirt","Use_":"Recreation","Condition":"Unknown","Lat":45.46830326,"Long":-83.88603521},"geometry":{"type":"Point","coordinates":[-83.88604019995613,45.46831191842025]}},{"type":"Feature","properties":{"OBJECTID":7522,"Type":"Campground","Detail_Type":"State Park","DISTRICT":"Gaylord","COUNTY":"Presque Isle","FACILITY":"Hoeft State Park","Camp_type":"Organizational","TOTAL_SITE":1,"ADA_SITES":0,"name":"Hoeft State Park  ","Ownership":"State","Management":"DNR","Surface":"Dirt","Use_":"Recreation","Condition":"Unknown","Lat":45.46492724,"Long":-83.88142568},"geometry":{"type":"Point","coordinates":[-83.88143067326477,45.464935895617394]}},{"type":"Feature","properties":{"OBJECTID":7523,"Type":"Campground","Detail_Type":"State Park","DISTRICT":"Plainwell","COUNTY":"Muskegon","FACILITY":"Hoffmaster State Park","Camp_type":"Modern","TOTAL_SITE":293,"ADA_SITES":0,"name":"Hoffmaster State Park  ","Ownership":"State","Management":"DNR","Surface":"Dirt","Use_":"Recreation","Condition":"Unknown","Lat":43.13742574,"Long":-86.27382526},"geometry":{"type":"Point","coordinates":[-86.27383073295252,43.13743388228054]}},{"type":"Feature","properties":{"OBJECTID":7524,"Type":"Campground","Detail_Type":"State Park","DISTRICT":"Plainwell","COUNTY":"Muskegon","FACILITY":"Hoffmaster State Park","Camp_type":"Organizational","TOTAL_SITE":2,"ADA_SITES":0,"name":"Hoffmaster State Park  ","Ownership":"State","Management":"DNR","Surface":"Dirt","Use_":"Recreation","Condition":"Unknown","Lat":43.12511746,"Long":-86.26175802},"geometry":{"type":"Point","coordinates":[-86.26176348470558,43.12512560604208]}},{"type":"Feature","properties":{"OBJECTID":7525,"Type":"Campground","Detail_Type":"State Park","DISTRICT":"Plainwell","COUNTY":"Ottawa","FACILITY":"Holland State Park","Camp_type":"Modern","TOTAL_SITE":110,"ADA_SITES":11,"name":"Holland State Park Lake Macatawa","Ownership":"State","Management":"DNR","Surface":"Dirt","Use_":"Recreation","Condition":"Unknown","Lat":42.77531733,"Long":-86.20709641},"geometry":{"type":"Point","coordinates":[-86.20710182798192,42.77532541390728]}},{"type":"Feature","properties":{"OBJECTID":7526,"Type":"Campground","Detail_Type":"State Park","DISTRICT":"Plainwell","COUNTY":"Ottawa","FACILITY":"Holland State Park","Camp_type":"Modern","TOTAL_SITE":61,"ADA_SITES":8,"name":"Holland State Park Beach","Ownership":"State","Management":"DNR","Surface":"Dirt","Use_":"Recreation","Condition":"Unknown","Lat":42.77981789,"Long":-86.20037653},"geometry":{"type":"Point","coordinates":[-86.20038194124501,42.7798259764831]}},{"type":"Feature","properties":{"OBJECTID":7527,"Type":"Campground","Detail_Type":"State Park","DISTRICT":"Bay City","COUNTY":"Oakland","FACILITY":"Holly Recreation Area","Camp_type":"Modern","TOTAL_SITE":144,"ADA_SITES":2,"name":"Holly Recreation Area Mcginnis Lake","Ownership":"State","Management":"DNR","Surface":"Dirt","Use_":"Recreation","Condition":"Unknown","Lat":42.82548367,"Long":-83.52319757},"geometry":{"type":"Point","coordinates":[-83.52320217782967,42.82549190489394]}},{"type":"Feature","properties":{"OBJECTID":7528,"Type":"Campground","Detail_Type":"State Park","DISTRICT":"Bay City","COUNTY":"Oakland","FACILITY":"Holly Recreation Area","Camp_type":"Modern","TOTAL_SITE":15,"ADA_SITES":0,"name":"Holly Recreation Area Mcginnis Lake","Ownership":"State","Management":"DNR","Surface":"Dirt","Use_":"Recreation","Condition":"Unknown","Lat":42.82500731,"Long":-83.53072829},"geometry":{"type":"Point","coordinates":[-83.53073289453474,42.8250155421551]}},{"type":"Feature","properties":{"OBJECTID":7529,"Type":"Campground","Detail_Type":"State Park","DISTRICT":"Bay City","COUNTY":"Oakland","FACILITY":"Holly Recreation Area","Camp_type":"Organizational","TOTAL_SITE":5,"ADA_SITES":0,"name":"Holly Recreation Area  ","Ownership":"State","Management":"DNR","Surface":"Dirt","Use_":"Recreation","Condition":"Unknown","Lat":42.81799664,"Long":-83.51326686},"geometry":{"type":"Point","coordinates":[-83.5132714584944,42.818004874957936]}},{"type":"Feature","properties":{"OBJECTID":7530,"Type":"Campground","Detail_Type":"State Park","DISTRICT":"Baraga","COUNTY":"Schoolcraft","FACILITY":"Inidan Lakes State Park","Camp_type":"Modern","TOTAL_SITE":131,"ADA_SITES":10,"name":"Inidan Lakes State Park South","Ownership":"State","Management":"DNR","Surface":"Dirt","Use_":"Recreation","Condition":"Unknown","Lat":45.94616309,"Long":-86.32843164},"geometry":{"type":"Point","coordinates":[-86.32843745329622,45.946171682206206]}},{"type":"Feature","properties":{"OBJECTID":7531,"Type":"Campground","Detail_Type":"State Park","DISTRICT":"Baraga","COUNTY":"Schoolcraft","FACILITY":"Indian Lakes State Park","Camp_type":"Semi Modern","TOTAL_SITE":56,"ADA_SITES":0,"name":"Indian Lakes State Park West","Ownership":"State","Management":"DNR","Surface":"Dirt","Use_":"Recreation","Condition":"Unknown","Lat":45.97040839,"Long":-86.36103863},"geometry":{"type":"Point","coordinates":[-86.36104445368206,45.97041698891949]}},{"type":"Feature","properties":{"OBJECTID":7532,"Type":"Campground","Detail_Type":"State Park","DISTRICT":"Gaylord","COUNTY":"Grand Traverse","FACILITY":"Interlochen State Park","Camp_type":"Modern","TOTAL_SITE":208,"ADA_SITES":11,"name":"Interlochen State Park Duck Lake","Ownership":"State","Management":"DNR","Surface":"Dirt","Use_":"Recreation","Condition":"Unknown","Lat":44.6254727,"Long":-85.75925239},"geometry":{"type":"Point","coordinates":[-85.75925787327814,44.625481114129414]}},{"type":"Feature","properties":{"OBJECTID":7533,"Type":"Campground","Detail_Type":"State Park","DISTRICT":"Gaylord","COUNTY":"Grand Traverse","FACILITY":"Interlochen State Park","Camp_type":"Modern","TOTAL_SITE":220,"ADA_SITES":0,"name":"Interlochen State Park Duck Lake","Ownership":"State","Management":"DNR","Surface":"Dirt","Use_":"Recreation","Condition":"Unknown","Lat":44.63138795,"Long":-85.76238922},"geometry":{"type":"Point","coordinates":[-85.76239469721843,44.63139636447498]}},{"type":"Feature","properties":{"OBJECTID":7534,"Type":"Campground","Detail_Type":"State Park","DISTRICT":"Gaylord","COUNTY":"Grand Traverse","FACILITY":"Interlochen State Park","Camp_type":"Rustic","TOTAL_SITE":31,"ADA_SITES":0,"name":"Interlochen State Park Green Lake","Ownership":"State","Management":"DNR","Surface":"Dirt","Use_":"Recreation","Condition":"Unknown","Lat":44.62582035,"Long":-85.76553433},"geometry":{"type":"Point","coordinates":[-85.7655398077313,44.62582876363103]}},{"type":"Feature","properties":{"OBJECTID":7535,"Type":"Campground","Detail_Type":"State Park","DISTRICT":"Gaylord","COUNTY":"Grand Traverse","FACILITY":"Interlochen State Park","Camp_type":"Rustic","TOTAL_SITE":15,"ADA_SITES":0,"name":"Interlochen State Park Green Lake","Ownership":"State","Management":"DNR","Surface":"Dirt","Use_":"Recreation","Condition":"Unknown","Lat":44.6231398,"Long":-85.76316468},"geometry":{"type":"Point","coordinates":[-85.76317015569553,44.62314821765384]}},{"type":"Feature","properties":{"OBJECTID":7536,"Type":"Campground","Detail_Type":"State Park","DISTRICT":"Gaylord","COUNTY":"Grand Traverse","FACILITY":"Interlochen State Park","Camp_type":"Rustic","TOTAL_SITE":14,"ADA_SITES":0,"name":"Interlochen State Park Green Lake","Ownership":"State","Management":"DNR","Surface":"Dirt","Use_":"Recreation","Condition":"Unknown","Lat":44.621491,"Long":-85.76106413},"geometry":{"type":"Point","coordinates":[-85.7610696094421,44.62149942011027]}},{"type":"Feature","properties":{"OBJECTID":7537,"Type":"Campground","Detail_Type":"State Park","DISTRICT":"Gaylord","COUNTY":"Grand Traverse","FACILITY":"Interlochen State Park","Camp_type":"Organizational","TOTAL_SITE":1,"ADA_SITES":0,"name":"Interlochen State Park Duck Lake","Ownership":"State","Management":"DNR","Surface":"Dirt","Use_":"Recreation","Condition":"Unknown","Lat":44.62924437,"Long":-85.76356892},"geometry":{"type":"Point","coordinates":[-85.76357440232563,44.62925278403546]}},{"type":"Feature","properties":{"OBJECTID":7538,"Type":"Campground","Detail_Type":"State Park","DISTRICT":"Gaylord","COUNTY":"Grand Traverse","FACILITY":"Interlochen State Park","Camp_type":"Organizational","TOTAL_SITE":1,"ADA_SITES":0,"name":"Interlochen State Park Green Lake","Ownership":"State","Management":"DNR","Surface":"Dirt","Use_":"Recreation","Condition":"Unknown","Lat":44.62350114,"Long":-85.76269488},"geometry":{"type":"Point","coordinates":[-85.76270036324411,44.623509560963996]}},{"type":"Feature","properties":{"OBJECTID":7539,"Type":"Campground","Detail_Type":"State Park","DISTRICT":"Rose Lake","COUNTY":"Ionia","FACILITY":"Ionia Recreation Area","Camp_type":"Modern","TOTAL_SITE":98,"ADA_SITES":5,"name":"Ionia Recreation Area  ","Ownership":"State","Management":"DNR","Surface":"Dirt","Use_":"Recreation","Condition":"Unknown","Lat":42.93781802,"Long":-85.11887},"geometry":{"type":"Point","coordinates":[-85.11887510875546,42.937826195707714]}},{"type":"Feature","properties":{"OBJECTID":7540,"Type":"Campground","Detail_Type":"State Park","DISTRICT":"Rose Lake","COUNTY":"Ionia","FACILITY":"Ionia Recreation Area","Camp_type":"Equestrian","TOTAL_SITE":49,"ADA_SITES":0,"name":"Ionia Recreation Area  ","Ownership":"State","Management":"DNR","Surface":"Dirt","Use_":"Recreation","Condition":"Unknown","Lat":42.94033477,"Long":-85.11636673},"geometry":{"type":"Point","coordinates":[-85.11637183177416,42.94034294574872]}},{"type":"Feature","properties":{"OBJECTID":7541,"Type":"Campground","Detail_Type":"State Park","DISTRICT":"Rose Lake","COUNTY":"Ionia","FACILITY":"Ionia Recreatino Area","Camp_type":"Organizational","TOTAL_SITE":30,"ADA_SITES":0,"name":"Ionia Recreatino Area  ","Ownership":"State","Management":"DNR","Surface":"Dirt","Use_":"Recreation","Condition":"Unknown","Lat":42.94479383,"Long":-85.11506765},"geometry":{"type":"Point","coordinates":[-85.11507275800106,42.944801999259134]}},{"type":"Feature","properties":{"OBJECTID":7542,"Type":"Campground","Detail_Type":"State Park","DISTRICT":"Baraga","COUNTY":"Ionia","FACILITY":"Wells State Park","Camp_type":"Modern","TOTAL_SITE":150,"ADA_SITES":8,"name":"Wells State Park  ","Ownership":"State","Management":"DNR","Surface":"Dirt","Use_":"Recreation","Condition":"Unknown","Lat":45.39007618,"Long":-87.36480662},"geometry":{"type":"Point","coordinates":[-87.36481267708584,45.390084618711995]}},{"type":"Feature","properties":{"OBJECTID":7543,"Type":"Campground","Detail_Type":"State Park","DISTRICT":"Baraga","COUNTY":"Gogebic","FACILITY":"Lake Gogebic State Park","Camp_type":"Modern","TOTAL_SITE":127,"ADA_SITES":0,"name":"Lake Gogebic State Park  ","Ownership":"State","Management":"DNR","Surface":"Dirt","Use_":"Recreation","Condition":"Unknown","Lat":46.46040137,"Long":-89.57240802},"geometry":{"type":"Point","coordinates":[-89.57241488889653,46.46040983598645]}},{"type":"Feature","properties":{"OBJECTID":7544,"Type":"Campground","Detail_Type":"State Park","DISTRICT":"Rose Lake","COUNTY":"Lenawee","FACILITY":"Lake Hudson State Park","Camp_type":"Semi Modern","TOTAL_SITE":50,"ADA_SITES":0,"name":"Lake Hudson State Park  ","Ownership":"State","Management":"DNR","Surface":"Dirt","Use_":"Recreation","Condition":"Unknown","Lat":41.82436458,"Long":-84.25992656},"geometry":{"type":"Point","coordinates":[-84.25993129625695,41.82437260551579]}},{"type":"Feature","properties":{"OBJECTID":7545,"Type":"Campground","Detail_Type":"State Park","DISTRICT":"Bay City","COUNTY":"St. Clair","FACILITY":"Lakeport State Park","Camp_type":"Modern","TOTAL_SITE":194,"ADA_SITES":0,"name":"Lakeport State Park  ","Ownership":"State","Management":"DNR","Surface":"Dirt","Use_":"Recreation","Condition":"Unknown","Lat":43.13127311,"Long":-82.49461501},"geometry":{"type":"Point","coordinates":[-82.49461932902135,43.13128145033188]}},{"type":"Feature","properties":{"OBJECTID":7546,"Type":"Campground","Detail_Type":"State Park","DISTRICT":"Bay City","COUNTY":"St. Clair","FACILITY":"Lakeport State Park","Camp_type":"Modern","TOTAL_SITE":56,"ADA_SITES":0,"name":"Lakeport State Park  ","Ownership":"State","Management":"DNR","Surface":"Dirt","Use_":"Recreation","Condition":"Unknown","Lat":43.12513107,"Long":-82.49432814},"geometry":{"type":"Point","coordinates":[-82.4943324547651,43.12513941131481]}},{"type":"Feature","properties":{"OBJECTID":7547,"Type":"Campground","Detail_Type":"State Park","DISTRICT":"Bay City","COUNTY":"St. Clair","FACILITY":"Lakeport State Park","Camp_type":"Organizational","TOTAL_SITE":4,"ADA_SITES":0,"name":"Lakeport State Park  ","Ownership":"State","Management":"DNR","Surface":"Dirt","Use_":"Recreation","Condition":"Unknown","Lat":43.12125551,"Long":-82.49314433},"geometry":{"type":"Point","coordinates":[-82.49314864658935,43.12126385231642]}},{"type":"Feature","properties":{"OBJECTID":7548,"Type":"Campground","Detail_Type":"State Park","DISTRICT":"Bay City","COUNTY":"St. Clair","FACILITY":"Lakeport State Park","Camp_type":"Organizational","TOTAL_SITE":4,"ADA_SITES":0,"name":"Lakeport State Park  ","Ownership":"State","Management":"DNR","Surface":"Dirt","Use_":"Recreation","Condition":"Unknown","Lat":43.13148024,"Long":-82.49754364},"geometry":{"type":"Point","coordinates":[-82.49754795893055,43.131488581929176]}},{"type":"Feature","properties":{"OBJECTID":7549,"Type":"Campground","Detail_Type":"State Park","DISTRICT":"Roscommon","COUNTY":"Leelanau","FACILITY":"Leelanau State Park","Camp_type":"Rustic","TOTAL_SITE":52,"ADA_SITES":0,"name":"Leelanau State Park  ","Ownership":"State","Management":"DNR","Surface":"Dirt","Use_":"Recreation","Condition":"Unknown","Lat":45.2099004,"Long":-85.54268175},"geometry":{"type":"Point","coordinates":[-85.54268723111613,45.20990892091086]}},{"type":"Feature","properties":{"OBJECTID":7550,"Type":"Campground","Detail_Type":"State Park","DISTRICT":"Cadillac","COUNTY":"Mason","FACILITY":"Ludington State Park","Camp_type":"Modern","TOTAL_SITE":97,"ADA_SITES":5,"name":"Ludington State Park Pines","Ownership":"State","Management":"DNR","Surface":"Dirt","Use_":"Recreation","Condition":"Unknown","Lat":44.03533463,"Long":-86.50517087},"geometry":{"type":"Point","coordinates":[-86.50517650744113,44.03534291306956]}},{"type":"Feature","properties":{"OBJECTID":7551,"Type":"Campground","Detail_Type":"State Park","DISTRICT":"Cadillac","COUNTY":"Mason","FACILITY":"Ludington State Park","Camp_type":"Modern","TOTAL_SITE":105,"ADA_SITES":4,"name":"Ludington State Park Cedars","Ownership":"State","Management":"DNR","Surface":"Dirt","Use_":"Recreation","Condition":"Unknown","Lat":44.03847918,"Long":-86.50092855},"geometry":{"type":"Point","coordinates":[-86.50093419263652,44.03848746069494]}},{"type":"Feature","properties":{"OBJECTID":7552,"Type":"Campground","Detail_Type":"State Park","DISTRICT":"Cadillac","COUNTY":"Mason","FACILITY":"Ludington State Park","Camp_type":"Modern","TOTAL_SITE":144,"ADA_SITES":0,"name":"Ludington State Park Beechwood","Ownership":"State","Management":"DNR","Surface":"Dirt","Use_":"Recreation","Condition":"Unknown","Lat":44.0380394,"Long":-86.4947158},"geometry":{"type":"Point","coordinates":[-86.49472143627744,44.038047684038666]}},{"type":"Feature","properties":{"OBJECTID":7553,"Type":"Campground","Detail_Type":"State Park","DISTRICT":"Cadillac","COUNTY":"Mason","FACILITY":"Ludington State Park","Camp_type":"Rustic","TOTAL_SITE":10,"ADA_SITES":0,"name":"Ludington State Park Jackpine","Ownership":"State","Management":"DNR","Surface":"Dirt","Use_":"Recreation","Condition":"Unknown","Lat":44.04410719,"Long":-86.51039617},"geometry":{"type":"Point","coordinates":[-86.51040181028038,44.04411546808922]}},{"type":"Feature","properties":{"OBJECTID":7554,"Type":"Campground","Detail_Type":"State Park","DISTRICT":"Baraga","COUNTY":"Houghton","FACILITY":"Mclain State Park","Camp_type":"Modern","TOTAL_SITE":103,"ADA_SITES":0,"name":"Mclain State Park  ","Ownership":"State","Management":"DNR","Surface":"Dirt","Use_":"Recreation","Condition":"Unknown","Lat":47.23841482,"Long":-88.60382615},"geometry":{"type":"Point","coordinates":[-88.60383283888429,47.23842346050176]}},{"type":"Feature","properties":{"OBJECTID":7555,"Type":"Campground","Detail_Type":"State Park","DISTRICT":"Cadillac","COUNTY":"Oceana","FACILITY":"Mears State Park","Camp_type":"Modern","TOTAL_SITE":178,"ADA_SITES":0,"name":"Mears State Park  ","Ownership":"State","Management":"DNR","Surface":"Dirt","Use_":"Recreation","Condition":"Unknown","Lat":43.78385732,"Long":-86.43823159},"geometry":{"type":"Point","coordinates":[-86.43823718405055,43.78386555808378]}},{"type":"Feature","properties":{"OBJECTID":7556,"Type":"Campground","Detail_Type":"State Park","DISTRICT":"Bay City","COUNTY":"Lapeer","FACILITY":"Metamora-Hadley Recreation Area","Camp_type":"Modern","TOTAL_SITE":88,"ADA_SITES":0,"name":"Metamora-Hadley Recreation Area  ","Ownership":"State","Management":"DNR","Surface":"Dirt","Use_":"Recreation","Condition":"Unknown","Lat":42.94247864,"Long":-83.35049416},"geometry":{"type":"Point","coordinates":[-83.35049872133077,42.942486904021855]}},{"type":"Feature","properties":{"OBJECTID":7557,"Type":"Campground","Detail_Type":"State Park","DISTRICT":"Bay City","COUNTY":"Lapeer","FACILITY":"Metamora-Hadley Recreation Area","Camp_type":"Modern","TOTAL_SITE":125,"ADA_SITES":0,"name":"Metamora-Hadley Recreation Area  ","Ownership":"State","Management":"DNR","Surface":"Dirt","Use_":"Recreation","Condition":"Unknown","Lat":42.93633425,"Long":-83.34825307},"geometry":{"type":"Point","coordinates":[-83.34825763235787,42.936342519124466]}},{"type":"Feature","properties":{"OBJECTID":7558,"Type":"Campground","Detail_Type":"State Park","DISTRICT":"Cadillac","COUNTY":"Wexford","FACILITY":"Mitchell State Park","Camp_type":"Modern","TOTAL_SITE":225,"ADA_SITES":11,"name":"Mitchell State Park  ","Ownership":"State","Management":"DNR","Surface":"Dirt","Use_":"Recreation","Condition":"Unknown","Lat":44.23794311,"Long":-85.45245857},"geometry":{"type":"Point","coordinates":[-85.4524639093074,44.23795148436614]}},{"type":"Feature","properties":{"OBJECTID":7559,"Type":"Campground","Detail_Type":"State Park","DISTRICT":"Gaylord","COUNTY":"Luce","FACILITY":"Muskallonge Lake State Park","Camp_type":"Modern","TOTAL_SITE":171,"ADA_SITES":0,"name":"Muskallonge Lake State Park  ","Ownership":"State","Management":"DNR","Surface":"Dirt","Use_":"Recreation","Condition":"Unknown","Lat":46.67571971,"Long":-85.63102758},"geometry":{"type":"Point","coordinates":[-85.63103326763407,46.675728458250056]}},{"type":"Feature","properties":{"OBJECTID":7560,"Type":"Campground","Detail_Type":"State Park","DISTRICT":"Roscommon","COUNTY":"Ogemaw","FACILITY":"Rifle River Recreation Area","Camp_type":"Modern","TOTAL_SITE":80,"ADA_SITES":0,"name":"Rifle River Recreation Area Grousehaven","Ownership":"State","Management":"DNR","Surface":"Dirt","Use_":"Recreation","Condition":"Unknown","Lat":44.41459561,"Long":-84.02432796},"geometry":{"type":"Point","coordinates":[-84.0243328796028,44.41460408606898]}},{"type":"Feature","properties":{"OBJECTID":7561,"Type":"Campground","Detail_Type":"State Park","DISTRICT":"Roscommon","COUNTY":"Ogemaw","FACILITY":"Rifle River Recreation Area","Camp_type":"Rustic","TOTAL_SITE":38,"ADA_SITES":0,"name":"Rifle River Recreation Area Devoe Lake","Ownership":"State","Management":"DNR","Surface":"Dirt","Use_":"Recreation","Condition":"Unknown","Lat":44.39809017,"Long":-84.02905354},"geometry":{"type":"Point","coordinates":[-84.02905846473112,44.39809864938499]}},{"type":"Feature","properties":{"OBJECTID":7562,"Type":"Campground","Detail_Type":"State Park","DISTRICT":"Roscommon","COUNTY":"Ogemaw","FACILITY":"Rifle River Recreation Area","Camp_type":"Rustic","TOTAL_SITE":1,"ADA_SITES":0,"name":"Rifle River Recreation Area  ","Ownership":"State","Management":"DNR","Surface":"Dirt","Use_":"Recreation","Condition":"Unknown","Lat":44.40037985,"Long":-84.0383455},"geometry":{"type":"Point","coordinates":[-84.03835042748182,44.40038832263041]}},{"type":"Feature","properties":{"OBJECTID":7563,"Type":"Campground","Detail_Type":"State Park","DISTRICT":"Roscommon","COUNTY":"Ogemaw","FACILITY":"Rifle River Recreation Area","Camp_type":"Rustic","TOTAL_SITE":64,"ADA_SITES":0,"name":"Rifle River Recreation Area Ranch","Ownership":"State","Management":"DNR","Surface":"Dirt","Use_":"Recreation","Condition":"Unknown","Lat":44.39166197,"Long":-84.03629491},"geometry":{"type":"Point","coordinates":[-84.03629983029093,44.3916704412368]}},{"type":"Feature","properties":{"OBJECTID":7564,"Type":"Campground","Detail_Type":"State Park","DISTRICT":"Roscommon","COUNTY":"Ogemaw","FACILITY":"Rifle River Recreation Area","Camp_type":"Rustic","TOTAL_SITE":18,"ADA_SITES":0,"name":"Rifle River Recreation Area Spruce","Ownership":"State","Management":"DNR","Surface":"Dirt","Use_":"Recreation","Condition":"Unknown","Lat":44.38687748,"Long":-84.03434168},"geometry":{"type":"Point","coordinates":[-84.03434659827188,44.386885950560504]}},{"type":"Feature","properties":{"OBJECTID":7565,"Type":"Campground","Detail_Type":"State Park","DISTRICT":"Cadillac","COUNTY":"Muskegon","FACILITY":"Muskegon State Park","Camp_type":"Modern","TOTAL_SITE":86,"ADA_SITES":0,"name":"Muskegon State Park Lake Michigan","Ownership":"State","Management":"DNR","Surface":"Dirt","Use_":"Recreation","Condition":"Unknown","Lat":43.26174957,"Long":-86.35774078},"geometry":{"type":"Point","coordinates":[-86.35774629236668,43.26175773138462]}},{"type":"Feature","properties":{"OBJECTID":7566,"Type":"Campground","Detail_Type":"State Park","DISTRICT":"Cadillac","COUNTY":"Muskegon","FACILITY":"Muskegon State Park","Camp_type":"Organizational","TOTAL_SITE":1,"ADA_SITES":0,"name":"Muskegon State Park  ","Ownership":"State","Management":"DNR","Surface":"Dirt","Use_":"Recreation","Condition":"Unknown","Lat":43.24990613,"Long":-86.3469152},"geometry":{"type":"Point","coordinates":[-86.3469207041219,43.24991429192159]}},{"type":"Feature","properties":{"OBJECTID":7567,"Type":"Campground","Detail_Type":"State Park","DISTRICT":"Cadillac","COUNTY":"Muskegon","FACILITY":"Muskegon State Park","Camp_type":"Modern","TOTAL_SITE":116,"ADA_SITES":0,"name":"Muskegon State Park Channel","Ownership":"State","Management":"DNR","Surface":"Dirt","Use_":"Recreation","Condition":"Unknown","Lat":43.2348091,"Long":-86.32953708},"geometry":{"type":"Point","coordinates":[-86.32954258207732,43.23481725527895]}},{"type":"Feature","properties":{"OBJECTID":7568,"Type":"Campground","Detail_Type":"State Park","DISTRICT":"Cadillac","COUNTY":"Newaygo","FACILITY":"Newaygo State Park","Camp_type":"Rustic","TOTAL_SITE":48,"ADA_SITES":1,"name":"Newaygo State Park Poplar","Ownership":"State","Management":"DNR","Surface":"Dirt","Use_":"Recreation","Condition":"Unknown","Lat":43.50374963,"Long":-85.58477794},"geometry":{"type":"Point","coordinates":[-85.58478324402051,43.50375787348211]}},{"type":"Feature","properties":{"OBJECTID":7569,"Type":"Campground","Detail_Type":"State Park","DISTRICT":"Cadillac","COUNTY":"Newaygo","FACILITY":"Newaygo State Park","Camp_type":"Rustic","TOTAL_SITE":51,"ADA_SITES":0,"name":"Newaygo State Park Oak","Ownership":"State","Management":"DNR","Surface":"Dirt","Use_":"Recreation","Condition":"Unknown","Lat":43.5051867,"Long":-85.58887189},"geometry":{"type":"Point","coordinates":[-85.58887719196865,43.50519494281505]}},{"type":"Feature","properties":{"OBJECTID":7570,"Type":"Campground","Detail_Type":"State Park","DISTRICT":"Roscommon","COUNTY":"Crawford","FACILITY":"North Higgins Lake State Park","Camp_type":"Modern","TOTAL_SITE":82,"ADA_SITES":0,"name":"North Higgins Lake State Park West","Ownership":"State","Management":"DNR","Surface":"Dirt","Use_":"Recreation","Condition":"Unknown","Lat":44.51395581,"Long":-84.75297718},"geometry":{"type":"Point","coordinates":[-84.75298233901965,44.513964264129385]}},{"type":"Feature","properties":{"OBJECTID":7571,"Type":"Campground","Detail_Type":"State Park","DISTRICT":"Roscommon","COUNTY":"Crawford","FACILITY":"North Higgins Lake  State Park","Camp_type":"Modern","TOTAL_SITE":93,"ADA_SITES":0,"name":"North Higgins Lake  State Park East","Ownership":"State","Management":"DNR","Surface":"Dirt","Use_":"Recreation","Condition":"Unknown","Lat":44.51368754,"Long":-84.76338211},"geometry":{"type":"Point","coordinates":[-84.7633872730958,44.51369599438163]}},{"type":"Feature","properties":{"OBJECTID":7572,"Type":"Campground","Detail_Type":"State Park","DISTRICT":"Gaylord","COUNTY":"Presque Isle","FACILITY":"Onaway State Park","Camp_type":"Modern","TOTAL_SITE":85,"ADA_SITES":0,"name":"Onaway State Park  ","Ownership":"State","Management":"DNR","Surface":"Dirt","Use_":"Recreation","Condition":"Unknown","Lat":45.4357204,"Long":-84.23287},"geometry":{"type":"Point","coordinates":[-84.23287510177882,45.4357290370992]}},{"type":"Feature","properties":{"OBJECTID":7573,"Type":"Campground","Detail_Type":"State Park","DISTRICT":"Cadillac","COUNTY":"Manistee","FACILITY":"Orchard Beach State Park","Camp_type":"Modern","TOTAL_SITE":168,"ADA_SITES":0,"name":"Orchard Beach State Park  ","Ownership":"State","Management":"DNR","Surface":"Dirt","Use_":"Recreation","Condition":"Unknown","Lat":44.28141345,"Long":-86.31563755},"geometry":{"type":"Point","coordinates":[-86.3156431618051,44.28142177521516]}},{"type":"Feature","properties":{"OBJECTID":7574,"Type":"Campground","Detail_Type":"State Park","DISTRICT":"Bay City","COUNTY":"Oakland","FACILITY":"Ortonville Recreation Area","Camp_type":"Equestrian","TOTAL_SITE":25,"ADA_SITES":0,"name":"Ortonville Recreation Area  ","Ownership":"State","Management":"DNR","Surface":"Dirt","Use_":"Recreation","Condition":"Unknown","Lat":42.89684828,"Long":-83.40938891},"geometry":{"type":"Point","coordinates":[-83.40939348986879,42.89685653420311]}},{"type":"Feature","properties":{"OBJECTID":7575,"Type":"Campground","Detail_Type":"State Park","DISTRICT":"Gaylord","COUNTY":"Otsego","FACILITY":"Otsego Lake State Park","Camp_type":"Modern","TOTAL_SITE":99,"ADA_SITES":4,"name":"Otsego Lake State Park North","Ownership":"State","Management":"DNR","Surface":"Dirt","Use_":"Recreation","Condition":"Unknown","Lat":44.93406963,"Long":-84.6876257},"geometry":{"type":"Point","coordinates":[-84.68763088106718,44.934078161847815]}},{"type":"Feature","properties":{"OBJECTID":7576,"Type":"Campground","Detail_Type":"State Park","DISTRICT":"Gaylord","COUNTY":"Otsego","FACILITY":"Otsego Lake State Park","Camp_type":"Modern","TOTAL_SITE":52,"ADA_SITES":0,"name":"Otsego Lake State Park South","Ownership":"State","Management":"DNR","Surface":"Dirt","Use_":"Recreation","Condition":"Unknown","Lat":44.92893328,"Long":-84.69083036},"geometry":{"type":"Point","coordinates":[-84.69083554754218,44.92894181145559]}},{"type":"Feature","properties":{"OBJECTID":7577,"Type":"Campground","Detail_Type":"State Park","DISTRICT":"Gaylord","COUNTY":"Emmet","FACILITY":"Petoskey State Park","Camp_type":"Modern","TOTAL_SITE":80,"ADA_SITES":0,"name":"Petoskey State Park Dune","Ownership":"State","Management":"DNR","Surface":"Dirt","Use_":"Recreation","Condition":"Unknown","Lat":45.40399606,"Long":-84.91007888},"geometry":{"type":"Point","coordinates":[-84.91008418311856,45.40400464690297]}},{"type":"Feature","properties":{"OBJECTID":7578,"Type":"Campground","Detail_Type":"State Park","DISTRICT":"Gaylord","COUNTY":"Emmet","FACILITY":"Petoskey State Park","Camp_type":"Group","TOTAL_SITE":1,"ADA_SITES":0,"name":"Petoskey State Park  ","Ownership":"State","Management":"DNR","Surface":"Dirt","Use_":"Recreation","Condition":"Unknown","Lat":45.40901507,"Long":-84.90835871},"geometry":{"type":"Point","coordinates":[-84.908364012124,45.40902366680882]}},{"type":"Feature","properties":{"OBJECTID":7579,"Type":"Campground","Detail_Type":"State Park","DISTRICT":"Gaylord","COUNTY":"Emmet","FACILITY":"Petoskey State Park","Camp_type":"Modern","TOTAL_SITE":100,"ADA_SITES":5,"name":"Petoskey State Park Tannery Creek","Ownership":"State","Management":"DNR","Surface":"Dirt","Use_":"Recreation","Condition":"Unknown","Lat":45.39518977,"Long":-84.91283479},"geometry":{"type":"Point","coordinates":[-84.91284010041707,45.395198354944455]}},{"type":"Feature","properties":{"OBJECTID":7580,"Type":"Campground","Detail_Type":"State Park","DISTRICT":"Rose Lake","COUNTY":"Washtenaw","FACILITY":"Pickney Recreation Areas","Camp_type":"Modern","TOTAL_SITE":185,"ADA_SITES":0,"name":"Pickney Recreation Areas Bruin Lake","Ownership":"State","Management":"DNR","Surface":"Dirt","Use_":"Recreation","Condition":"Unknown","Lat":42.42276523,"Long":-84.04362278},"geometry":{"type":"Point","coordinates":[-84.04362750677788,42.42277337112027]}},{"type":"Feature","properties":{"OBJECTID":7581,"Type":"Campground","Detail_Type":"State Park","DISTRICT":"Rose Lake","COUNTY":"Washtenaw","FACILITY":"Pickney Recreation Areas","Camp_type":"Rustic","TOTAL_SITE":20,"ADA_SITES":0,"name":"Pickney Recreation Areas  ","Ownership":"State","Management":"DNR","Surface":"Dirt","Use_":"Recreation","Condition":"Unknown","Lat":42.42255137,"Long":-83.98004283},"geometry":{"type":"Point","coordinates":[-83.98004753430561,42.422559516247205]}},{"type":"Feature","properties":{"OBJECTID":7582,"Type":"Campground","Detail_Type":"State Park","DISTRICT":"Pontiac","COUNTY":"Oakland","FACILITY":"Pontiac Lake Recreation Area","Camp_type":"Modern","TOTAL_SITE":176,"ADA_SITES":0,"name":"Pontiac Lake Recreation Area  ","Ownership":"State","Management":"DNR","Surface":"Dirt","Use_":"Recreation","Condition":"Unknown","Lat":42.68476501,"Long":-83.47012746},"geometry":{"type":"Point","coordinates":[-83.47013203821615,42.68477322181749]}},{"type":"Feature","properties":{"OBJECTID":7583,"Type":"Campground","Detail_Type":"State Park","DISTRICT":"Pontiac","COUNTY":"Oakland","FACILITY":"Pontiac Lake Recreation Area","Camp_type":"Equestrian","TOTAL_SITE":1,"ADA_SITES":0,"name":"Pontiac Lake Recreation Area  ","Ownership":"State","Management":"DNR","Surface":"Dirt","Use_":"Recreation","Condition":"Unknown","Lat":42.68882881,"Long":-83.45918584},"geometry":{"type":"Point","coordinates":[-83.45919041050621,42.688837024591884]}},{"type":"Feature","properties":{"OBJECTID":7584,"Type":"Campground","Detail_Type":"State Park","DISTRICT":"Pontiac","COUNTY":"Oakland","FACILITY":"Pontiac Lake Recreation Area","Camp_type":"Organizational","TOTAL_SITE":1,"ADA_SITES":0,"name":"Pontiac Lake Recreation Area  ","Ownership":"State","Management":"DNR","Surface":"Dirt","Use_":"Recreation","Condition":"Unknown","Lat":42.68664072,"Long":-83.48244566},"geometry":{"type":"Point","coordinates":[-83.48245023994444,42.686648935976166]}},{"type":"Feature","properties":{"OBJECTID":7585,"Type":"Campground","Detail_Type":"State Park","DISTRICT":"Baraga","COUNTY":"Ontonagon","FACILITY":"Porcupine Mountains State Park","Camp_type":"Rustic","TOTAL_SITE":50,"ADA_SITES":0,"name":"Porcupine Mountains State Park Presque Isle","Ownership":"State","Management":"DNR","Surface":"Dirt","Use_":"Recreation","Condition":"Unknown","Lat":46.70618926,"Long":-89.97879568},"geometry":{"type":"Point","coordinates":[-89.97880271509928,46.70619772848339]}},{"type":"Feature","properties":{"OBJECTID":7586,"Type":"Campground","Detail_Type":"State Park","DISTRICT":"Baraga","COUNTY":"Ontonagon","FACILITY":"Porcupine Mountains State Park","Camp_type":"Modern","TOTAL_SITE":101,"ADA_SITES":0,"name":"Porcupine Mountains State Park Union Bay","Ownership":"State","Management":"DNR","Surface":"Dirt","Use_":"Recreation","Condition":"Unknown","Lat":46.8240408,"Long":-89.6404144},"geometry":{"type":"Point","coordinates":[-89.64042134508448,46.82404930887047]}},{"type":"Feature","properties":{"OBJECTID":7587,"Type":"Campground","Detail_Type":"State Park","DISTRICT":"Bay City","COUNTY":"Huron","FACILITY":"Port Crescent State Park","Camp_type":"Modern","TOTAL_SITE":137,"ADA_SITES":0,"name":"Port Crescent State Park  ","Ownership":"State","Management":"DNR","Surface":"Dirt","Use_":"Recreation","Condition":"Unknown","Lat":44.009838,"Long":-83.05193107},"geometry":{"type":"Point","coordinates":[-83.05193564932993,44.0098464601793]}},{"type":"Feature","properties":{"OBJECTID":7588,"Type":"Campground","Detail_Type":"State Park","DISTRICT":"Pontiac","COUNTY":"Oakland","FACILITY":"Proud Lake Recreation Area","Camp_type":"Modern","TOTAL_SITE":128,"ADA_SITES":0,"name":"Proud Lake Recreation Area  ","Ownership":"State","Management":"DNR","Surface":"Dirt","Use_":"Recreation","Condition":"Unknown","Lat":42.56260808,"Long":-83.52611174},"geometry":{"type":"Point","coordinates":[-83.52611631710035,42.56261627541908]}},{"type":"Feature","properties":{"OBJECTID":7589,"Type":"Campground","Detail_Type":"State Park","DISTRICT":"Pontiac","COUNTY":"Oakland","FACILITY":"Proud Lake Recreation Area","Camp_type":"Organizational","TOTAL_SITE":1,"ADA_SITES":0,"name":"Proud Lake Recreation Area  ","Ownership":"State","Management":"DNR","Surface":"Dirt","Use_":"Recreation","Condition":"Unknown","Lat":42.57380665,"Long":-83.5571036},"geometry":{"type":"Point","coordinates":[-83.55710819633367,42.57381484398594]}},{"type":"Feature","properties":{"OBJECTID":7590,"Type":"Campground","Detail_Type":"State Park","DISTRICT":"Pontiac","COUNTY":"Oakland","FACILITY":"Proud Lake Recreation Area","Camp_type":"Organizational","TOTAL_SITE":1,"ADA_SITES":0,"name":"Proud Lake Recreation Area  ","Ownership":"State","Management":"DNR","Surface":"Dirt","Use_":"Recreation","Condition":"Unknown","Lat":42.56313404,"Long":-83.51707555},"geometry":{"type":"Point","coordinates":[-83.51708012492568,42.56314222885774]}},{"type":"Feature","properties":{"OBJECTID":7591,"Type":"Campground","Detail_Type":"State Park","DISTRICT":"Baraga","COUNTY":"Ontonagon","FACILITY":"Porcupine Mountains State Park","Camp_type":"Group","TOTAL_SITE":10,"ADA_SITES":0,"name":"Porcupine Mountains State Park  ","Ownership":"State","Management":"DNR","Surface":"Dirt","Use_":"Recreation","Condition":"Unknown","Lat":46.81835544,"Long":-89.61267985},"geometry":{"type":"Point","coordinates":[-89.61268678221722,46.818363950192506]}},{"type":"Feature","properties":{"OBJECTID":7592,"Type":"Campground","Detail_Type":"State Park","DISTRICT":"Baraga","COUNTY":"Ontonagon","FACILITY":"Porcupine Mountains State Park","Camp_type":"Rustic","TOTAL_SITE":1,"ADA_SITES":0,"name":"Porcupine Mountains State Park Lost Creek","Ownership":"State","Management":"DNR","Surface":"Dirt","Use_":"Recreation","Condition":"Unknown","Lat":46.75392086,"Long":-89.67938619},"geometry":{"type":"Point","coordinates":[-89.67939313643235,46.75392936247409]}},{"type":"Feature","properties":{"OBJECTID":7593,"Type":"Campground","Detail_Type":"State Park","DISTRICT":"Baraga","COUNTY":"Ontonagon","FACILITY":"Porcupine Mountains State Park","Camp_type":"Rustic","TOTAL_SITE":1,"ADA_SITES":0,"name":"Porcupine Mountains State Park Union River","Ownership":"State","Management":"DNR","Surface":"Dirt","Use_":"Recreation","Condition":"Unknown","Lat":46.7978123,"Long":-89.6225127},"geometry":{"type":"Point","coordinates":[-89.62251963954358,46.79782080356845]}},{"type":"Feature","properties":{"OBJECTID":7594,"Type":"Campground","Detail_Type":"State Park","DISTRICT":"Baraga","COUNTY":"Ontonagon","FACILITY":"Porcupine Mountains State Park","Camp_type":"Rustic","TOTAL_SITE":1,"ADA_SITES":0,"name":"Porcupine Mountains State Park White Pine","Ownership":"State","Management":"DNR","Surface":"Dirt","Use_":"Recreation","Condition":"Unknown","Lat":46.74271797,"Long":-89.7266035},"geometry":{"type":"Point","coordinates":[-89.72661045585663,46.74272646184361]}},{"type":"Feature","properties":{"OBJECTID":7595,"Type":"Campground","Detail_Type":"State Park","DISTRICT":"Bay City","COUNTY":"Oakland","FACILITY":"Seven Lakes State Park","Camp_type":"Modern","TOTAL_SITE":75,"ADA_SITES":4,"name":"Seven Lakes State Park  ","Ownership":"State","Management":"DNR","Surface":"Dirt","Use_":"Recreation","Condition":"Unknown","Lat":42.80843657,"Long":-83.65535185},"geometry":{"type":"Point","coordinates":[-83.6553564902837,42.80844480242942]}},{"type":"Feature","properties":{"OBJECTID":7596,"Type":"Campground","Detail_Type":"State Park","DISTRICT":"Cadillac","COUNTY":"Oceana","FACILITY":"Silver Lake State Park","Camp_type":"Modern","TOTAL_SITE":203,"ADA_SITES":12,"name":"Silver Lake State Park  ","Ownership":"State","Management":"DNR","Surface":"Dirt","Use_":"Recreation","Condition":"Unknown","Lat":43.66198464,"Long":-86.49506454},"geometry":{"type":"Point","coordinates":[-86.49507013324123,43.66199285416198]}},{"type":"Feature","properties":{"OBJECTID":7597,"Type":"Campground","Detail_Type":"State Park","DISTRICT":"Bay City","COUNTY":"Huron","FACILITY":"Sleeper State Park","Camp_type":"Modern","TOTAL_SITE":223,"ADA_SITES":7,"name":"Sleeper State Park  ","Ownership":"State","Management":"DNR","Surface":"Dirt","Use_":"Recreation","Condition":"Unknown","Lat":43.97956602,"Long":-83.21054455},"geometry":{"type":"Point","coordinates":[-83.21054917210637,43.97957447181172]}},{"type":"Feature","properties":{"OBJECTID":7598,"Type":"Campground","Detail_Type":"State Park","DISTRICT":"Rose Lake","COUNTY":"Clinton","FACILITY":"Sleepy Hollow State Park","Camp_type":"Modern","TOTAL_SITE":203,"ADA_SITES":0,"name":"Sleepy Hollow State Park  ","Ownership":"State","Management":"DNR","Surface":"Dirt","Use_":"Recreation","Condition":"Unknown","Lat":42.94230668,"Long":-84.40377287},"geometry":{"type":"Point","coordinates":[-84.40237406741952,42.943504831505635]}},{"type":"Feature","properties":{"OBJECTID":7599,"Type":"Campground","Detail_Type":"State Park","DISTRICT":"Rose Lake","COUNTY":"Clinton","FACILITY":"Sleepy Hollow State Park","Camp_type":"Organizational","TOTAL_SITE":1,"ADA_SITES":0,"name":"Sleepy Hollow State Park  ","Ownership":"State","Management":"DNR","Surface":"Dirt","Use_":"Recreation","Condition":"Unknown","Lat":42.93331759,"Long":-84.39831782},"geometry":{"type":"Point","coordinates":[-84.40378986398407,42.93444755983921]}},{"type":"Feature","properties":{"OBJECTID":7600,"Type":"Campground","Detail_Type":"State Park","DISTRICT":"Roscommon","COUNTY":"Roscommon","FACILITY":"South Higgins Lake State Park","Camp_type":"Modern","TOTAL_SITE":411,"ADA_SITES":0,"name":"South Higgins Lake State Park  ","Ownership":"State","Management":"DNR","Surface":"Dirt","Use_":"Recreation","Condition":"Unknown","Lat":44.42400587,"Long":-84.68612408},"geometry":{"type":"Point","coordinates":[-84.6861292023642,44.42401431607367]}},{"type":"Feature","properties":{"OBJECTID":7601,"Type":"Campground","Detail_Type":"State Park","DISTRICT":"Pontiac","COUNTY":"Monroe","FACILITY":"Sterling State Park","Camp_type":"Modern","TOTAL_SITE":261,"ADA_SITES":0,"name":"Sterling State Park  ","Ownership":"State","Management":"DNR","Surface":"Dirt","Use_":"Recreation","Condition":"Unknown","Lat":41.90531825,"Long":-83.33628911},"geometry":{"type":"Point","coordinates":[-83.33629357758872,41.905326330479944]}},{"type":"Feature","properties":{"OBJECTID":7602,"Type":"Campground","Detail_Type":"State Park","DISTRICT":"Gaylord","COUNTY":"Mackinac","FACILITY":"Straits State Park","Camp_type":"Modern","TOTAL_SITE":313,"ADA_SITES":0,"name":"Straits State Park  ","Ownership":"State","Management":"DNR","Surface":"Dirt","Use_":"Recreation","Condition":"Unknown","Lat":45.85415019,"Long":-84.7221502},"geometry":{"type":"Point","coordinates":[-84.72215550467772,45.854158864403026]}},{"type":"Feature","properties":{"OBJECTID":7603,"Type":"Campground","Detail_Type":"State Park","DISTRICT":"Gaylord","COUNTY":"Mackinac","FACILITY":"Straits State Park","Camp_type":"Modern","TOTAL_SITE":1,"ADA_SITES":0,"name":"Straits State Park  ","Ownership":"State","Management":"DNR","Surface":"Dirt","Use_":"Recreation","Condition":"Unknown","Lat":45.8492009,"Long":-84.71811729},"geometry":{"type":"Point","coordinates":[-84.71812258913485,45.8492095739905]}},{"type":"Feature","properties":{"OBJECTID":7604,"Type":"Campground","Detail_Type":"State Park","DISTRICT":"Gaylord","COUNTY":"Luce","FACILITY":"Tahquamenon Falls State Park","Camp_type":"Modern","TOTAL_SITE":72,"ADA_SITES":4,"name":"Tahquamenon Falls State Park Rivermouth","Ownership":"State","Management":"DNR","Surface":"Dirt","Use_":"Recreation","Condition":"Unknown","Lat":46.5589779,"Long":-85.03677},"geometry":{"type":"Point","coordinates":[-85.03677548601067,46.55898666062655]}},{"type":"Feature","properties":{"OBJECTID":7605,"Type":"Campground","Detail_Type":"State Park","DISTRICT":"Gaylord","COUNTY":"Luce","FACILITY":"Tahquamenon Falls State Park","Camp_type":"Semi Modern","TOTAL_SITE":36,"ADA_SITES":0,"name":"Tahquamenon Falls State Park Rivermouth","Ownership":"State","Management":"DNR","Surface":"Dirt","Use_":"Recreation","Condition":"Unknown","Lat":46.55586753,"Long":-85.0379126},"geometry":{"type":"Point","coordinates":[-85.03791808635573,46.555876298535615]}},{"type":"Feature","properties":{"OBJECTID":7606,"Type":"Campground","Detail_Type":"State Park","DISTRICT":"Gaylord","COUNTY":"Luce","FACILITY":"Tahquamenon Falls State Park","Camp_type":"Modern","TOTAL_SITE":88,"ADA_SITES":0,"name":"Tahquamenon Falls State Park Lower Falls","Ownership":"State","Management":"DNR","Surface":"Dirt","Use_":"Recreation","Condition":"Unknown","Lat":46.60868869,"Long":-85.20897344},"geometry":{"type":"Point","coordinates":[-85.20897898806446,46.60869745455072]}},{"type":"Feature","properties":{"OBJECTID":7607,"Type":"Campground","Detail_Type":"State Park","DISTRICT":"Gaylord","COUNTY":"Luce","FACILITY":"Tahquamenon Falls State Park","Camp_type":"Modern","TOTAL_SITE":81,"ADA_SITES":8,"name":"Tahquamenon Falls State Park Lower Falls","Ownership":"State","Management":"DNR","Surface":"Dirt","Use_":"Recreation","Condition":"Unknown","Lat":46.60334726,"Long":-85.19796862},"geometry":{"type":"Point","coordinates":[-85.19797416552584,46.60335602192133]}},{"type":"Feature","properties":{"OBJECTID":7608,"Type":"Campground","Detail_Type":"State Park","DISTRICT":"Roscommon","COUNTY":"Iosco","FACILITY":"Tawas Point State Park","Camp_type":"Modern","TOTAL_SITE":195,"ADA_SITES":0,"name":"Tawas Point State Park  ","Ownership":"State","Management":"DNR","Surface":"Dirt","Use_":"Recreation","Condition":"Unknown","Lat":44.25825976,"Long":-83.44446982},"geometry":{"type":"Point","coordinates":[-83.4444745469518,44.25826824361708]}},{"type":"Feature","properties":{"OBJECTID":7609,"Type":"Campground","Detail_Type":"State Park","DISTRICT":"Roscommon","COUNTY":"Grand Traverse","FACILITY":"Traverse City State Park","Camp_type":"Modern","TOTAL_SITE":343,"ADA_SITES":0,"name":"Traverse City State Park  ","Ownership":"State","Management":"DNR","Surface":"Dirt","Use_":"Recreation","Condition":"Unknown","Lat":44.74614089,"Long":-85.5498493},"geometry":{"type":"Point","coordinates":[-85.54985472685152,44.74614934385868]}},{"type":"Feature","properties":{"OBJECTID":7610,"Type":"Campground","Detail_Type":"State Park","DISTRICT":"Roscommon","COUNTY":"Grand Traverse","FACILITY":"Traverse City State Park","Camp_type":"Organizational","TOTAL_SITE":1,"ADA_SITES":0,"name":"Traverse City State Park  ","Ownership":"State","Management":"DNR","Surface":"Dirt","Use_":"Recreation","Condition":"Unknown","Lat":44.74488659,"Long":-85.5515092},"geometry":{"type":"Point","coordinates":[-85.5515146285486,44.74489503461187]}},{"type":"Feature","properties":{"OBJECTID":7611,"Type":"Campground","Detail_Type":"State Park","DISTRICT":"Baraga","COUNTY":"Houghton","FACILITY":"Twin Lakes State Park","Camp_type":"Modern","TOTAL_SITE":60,"ADA_SITES":0,"name":"Twin Lakes State Park  ","Ownership":"State","Management":"DNR","Surface":"Dirt","Use_":"Recreation","Condition":"Unknown","Lat":46.88966361,"Long":-88.85794576},"geometry":{"type":"Point","coordinates":[-88.85795247336651,46.889672180037934]}},{"type":"Feature","properties":{"OBJECTID":7612,"Type":"Campground","Detail_Type":"State Park","DISTRICT":"Plainwell","COUNTY":"Van Buren","FACILITY":"Van Buren State Park","Camp_type":"Modern","TOTAL_SITE":220,"ADA_SITES":0,"name":"Van Buren State Park  ","Ownership":"State","Management":"DNR","Surface":"Dirt","Use_":"Recreation","Condition":"Unknown","Lat":42.33002008,"Long":-86.30459623},"geometry":{"type":"Point","coordinates":[-86.30460163519203,42.33002807974989]}},{"type":"Feature","properties":{"OBJECTID":7613,"Type":"Campground","Detail_Type":"State Park","DISTRICT":"Plainwell","COUNTY":"Van Buren","FACILITY":"Van Buren State Park","Camp_type":"Organizational","TOTAL_SITE":1,"ADA_SITES":0,"name":"Van Buren State Park  ","Ownership":"State","Management":"DNR","Surface":"Dirt","Use_":"Recreation","Condition":"Unknown","Lat":42.33199794,"Long":-86.3002148},"geometry":{"type":"Point","coordinates":[-86.30022019714086,42.332005946599104]}},{"type":"Feature","properties":{"OBJECTID":7614,"Type":"Campground","Detail_Type":"State Park","DISTRICT":"Baraga","COUNTY":"Marquette","FACILITY":"Van Riper State Park","Camp_type":"Modern","TOTAL_SITE":147,"ADA_SITES":2,"name":"Van Riper State Park  ","Ownership":"State","Management":"DNR","Surface":"Dirt","Use_":"Recreation","Condition":"Unknown","Lat":46.51950862,"Long":-87.98742139},"geometry":{"type":"Point","coordinates":[-87.98742779261728,46.519517193984484]}},{"type":"Feature","properties":{"OBJECTID":7615,"Type":"Campground","Detail_Type":"State Park","DISTRICT":"Baraga","COUNTY":"Marguette","FACILITY":"Van Riper State Park","Camp_type":"Rustic","TOTAL_SITE":40,"ADA_SITES":0,"name":"Van Riper State Park  ","Ownership":"State","Management":"DNR","Surface":"Dirt","Use_":"Recreation","Condition":"Unknown","Lat":46.51924911,"Long":-87.99308709},"geometry":{"type":"Point","coordinates":[-87.99309349081949,46.51925768047718]}},{"type":"Feature","properties":{"OBJECTID":7616,"Type":"Campground","Detail_Type":"State Park","DISTRICT":"Rose Lake","COUNTY":"Lenawee","FACILITY":"W.J. Hayes State Park","Camp_type":"Modern","TOTAL_SITE":175,"ADA_SITES":10,"name":"W.J. Hayes State Park  ","Ownership":"State","Management":"DNR","Surface":"Dirt","Use_":"Recreation","Condition":"Unknown","Lat":42.06606615,"Long":-84.13154748},"geometry":{"type":"Point","coordinates":[-84.13155220266397,42.066074223819115]}},{"type":"Feature","properties":{"OBJECTID":7617,"Type":"Campground","Detail_Type":"State Park","DISTRICT":"Plainwell","COUNTY":"Berrien","FACILITY":"Warren Dunes State Park","Camp_type":"Modern","TOTAL_SITE":182,"ADA_SITES":0,"name":"Warren Dunes State Park  ","Ownership":"State","Management":"DNR","Surface":"Dirt","Use_":"Recreation","Condition":"Unknown","Lat":41.91053421,"Long":-86.58789318},"geometry":{"type":"Point","coordinates":[-86.5878986210851,41.910542123145575]}},{"type":"Feature","properties":{"OBJECTID":7618,"Type":"Campground","Detail_Type":"State Park","DISTRICT":"Plainwell","COUNTY":"Berrien","FACILITY":"Warren Dunes State Park","Camp_type":"Rustic","TOTAL_SITE":37,"ADA_SITES":0,"name":"Warren Dunes State Park  ","Ownership":"State","Management":"DNR","Surface":"Dirt","Use_":"Recreation","Condition":"Unknown","Lat":41.91556755,"Long":-86.58363877},"geometry":{"type":"Point","coordinates":[-86.5836442129784,41.91557546535559]}},{"type":"Feature","properties":{"OBJECTID":7619,"Type":"Campground","Detail_Type":"State Park","DISTRICT":"Plainwell","COUNTY":"Berrien","FACILITY":"Warren Dunes State Park","Camp_type":"Organizational","TOTAL_SITE":1,"ADA_SITES":0,"name":"Warren Dunes State Park  ","Ownership":"State","Management":"DNR","Surface":"Dirt","Use_":"Recreation","Condition":"Unknown","Lat":41.92185502,"Long":-86.5810612},"geometry":{"type":"Point","coordinates":[-86.58106664211793,41.921862937842505]}},{"type":"Feature","properties":{"OBJECTID":7620,"Type":"Campground","Detail_Type":"State Park","DISTRICT":"Rose Lake","COUNTY":"Jackson","FACILITY":"Waterloo Recreation Area","Camp_type":"Modern","TOTAL_SITE":154,"ADA_SITES":10,"name":"Waterloo Recreation Area Sugarloaf Lake","Ownership":"State","Management":"DNR","Surface":"Dirt","Use_":"Recreation","Condition":"Unknown","Lat":42.3419796,"Long":-84.12178164},"geometry":{"type":"Point","coordinates":[-84.12178638412634,42.34198772656715]}},{"type":"Feature","properties":{"OBJECTID":7621,"Type":"Campground","Detail_Type":"State Park","DISTRICT":"Rose Lake","COUNTY":"Jackson","FACILITY":"Waterloo Recreation Area","Camp_type":"Rustic","TOTAL_SITE":1,"ADA_SITES":0,"name":"Waterloo Recreation Area Green Lake","Ownership":"State","Management":"DNR","Surface":"Dirt","Use_":"Recreation","Condition":"Unknown","Lat":42.36435916,"Long":-84.07140165},"geometry":{"type":"Point","coordinates":[-84.07140637928009,42.36436729368342]}},{"type":"Feature","properties":{"OBJECTID":7622,"Type":"Campground","Detail_Type":"State Park","DISTRICT":"Rose Lake","COUNTY":"Jackson","FACILITY":"Waterloo Recreation Area","Camp_type":"Equestrian","TOTAL_SITE":1,"ADA_SITES":0,"name":"Waterloo Recreation Area Green Lake","Ownership":"State","Management":"DNR","Surface":"Dirt","Use_":"Recreation","Condition":"Unknown","Lat":42.33306649,"Long":-84.12938936},"geometry":{"type":"Point","coordinates":[-84.12939410899763,42.33307461398464]}},{"type":"Feature","properties":{"OBJECTID":7623,"Type":"Campground","Detail_Type":"State Park","DISTRICT":"Rose Lake","COUNTY":"Jackson","FACILITY":"Waterloo Recreation Area","Camp_type":"Modern","TOTAL_SITE":130,"ADA_SITES":7,"name":"Waterloo Recreation Area Portage Lake","Ownership":"State","Management":"DNR","Surface":"Dirt","Use_":"Recreation","Condition":"Unknown","Lat":42.32874775,"Long":-84.23612022},"geometry":{"type":"Point","coordinates":[-84.23612499485695,42.328755862309805]}},{"type":"Feature","properties":{"OBJECTID":7624,"Type":"Campground","Detail_Type":"State Park","DISTRICT":"Gaylord","COUNTY":"Emmet","FACILITY":"WIlderness State Park","Camp_type":"Organizational","TOTAL_SITE":1,"ADA_SITES":0,"name":"WIlderness State Park  ","Ownership":"State","Management":"DNR","Surface":"Dirt","Use_":"Recreation","Condition":"Unknown","Lat":45.75422986,"Long":-84.88629258},"geometry":{"type":"Point","coordinates":[-84.8862979236895,45.75423850776288]}},{"type":"Feature","properties":{"OBJECTID":7625,"Type":"Campground","Detail_Type":"State Park","DISTRICT":"Gaylord","COUNTY":"Emmet","FACILITY":"Wilderness State Park","Camp_type":"Modern","TOTAL_SITE":100,"ADA_SITES":0,"name":"Wilderness State Park Pines","Ownership":"State","Management":"DNR","Surface":"Dirt","Use_":"Recreation","Condition":"Unknown","Lat":45.74408339,"Long":-84.89983813},"geometry":{"type":"Point","coordinates":[-84.89984346838959,45.74409203896004]}},{"type":"Feature","properties":{"OBJECTID":7626,"Type":"Campground","Detail_Type":"State Park","DISTRICT":"Gaylord","COUNTY":"Emmet","FACILITY":"Wilderness State Park","Camp_type":"Modern","TOTAL_SITE":150,"ADA_SITES":0,"name":"Wilderness State Park Lakeshore","Ownership":"State","Management":"DNR","Surface":"Dirt","Use_":"Recreation","Condition":"Unknown","Lat":45.74592936,"Long":-84.90025949},"geometry":{"type":"Point","coordinates":[-84.900264830391,45.74593800325529]}},{"type":"Feature","properties":{"OBJECTID":7627,"Type":"Campground","Detail_Type":"State Park","DISTRICT":"Cadillac","COUNTY":"Clare","FACILITY":"Wilson State Park","Camp_type":"Modern","TOTAL_SITE":100,"ADA_SITES":0,"name":"Wilson State Park  ","Ownership":"State","Management":"DNR","Surface":"Dirt","Use_":"Recreation","Condition":"Unknown","Lat":44.03052791,"Long":-84.80560537},"geometry":{"type":"Point","coordinates":[-84.80561049250734,44.03053628118669]}},{"type":"Feature","properties":{"OBJECTID":7628,"Type":"Campground","Detail_Type":"State Park","DISTRICT":"Cadillac","COUNTY":"Clare","FACILITY":"Wilson State Park","Camp_type":"Modern","TOTAL_SITE":59,"ADA_SITES":0,"name":"Wilson State Park  ","Ownership":"State","Management":"DNR","Surface":"Dirt","Use_":"Recreation","Condition":"Unknown","Lat":44.02731823,"Long":-84.80353943},"geometry":{"type":"Point","coordinates":[-84.80354454949276,44.02732660075463]}},{"type":"Feature","properties":{"OBJECTID":7629,"Type":"Campground","Detail_Type":"State Park","DISTRICT":"Cadillac","COUNTY":"Clare","FACILITY":"Wilson State Park","Camp_type":"Organizational","TOTAL_SITE":1,"ADA_SITES":0,"name":"Wilson State Park  ","Ownership":"State","Management":"DNR","Surface":"Dirt","Use_":"Recreation","Condition":"Unknown","Lat":44.02620291,"Long":-84.80176023},"geometry":{"type":"Point","coordinates":[-84.80176534717164,44.0262112817791]}},{"type":"Feature","properties":{"OBJECTID":7630,"Type":"Campground","Detail_Type":"State Park","DISTRICT":"Plainwell","COUNTY":"Barry","FACILITY":"Yankee Springs Recreation Area","Camp_type":"Rustic","TOTAL_SITE":119,"ADA_SITES":0,"name":"Yankee Springs Recreation Area Deep Lake","Ownership":"State","Management":"DNR","Surface":"Dirt","Use_":"Recreation","Condition":"Unknown","Lat":42.61846714,"Long":-85.45527019},"geometry":{"type":"Point","coordinates":[-85.45527536115848,42.61847524426668]}},{"type":"Feature","properties":{"OBJECTID":7631,"Type":"Campground","Detail_Type":"State Park","DISTRICT":"Plainwell","COUNTY":"Barry","FACILITY":"Yankee Springs Recreation Area","Camp_type":"Modern","TOTAL_SITE":200,"ADA_SITES":12,"name":"Yankee Springs Recreation Area Gun Lake","Ownership":"State","Management":"DNR","Surface":"Dirt","Use_":"Recreation","Condition":"Unknown","Lat":42.61819858,"Long":-85.51914675},"geometry":{"type":"Point","coordinates":[-85.51915193881382,42.618206677296044]}},{"type":"Feature","properties":{"OBJECTID":7632,"Type":"Campground","Detail_Type":"State Park","DISTRICT":"Plainwell","COUNTY":"Barry","FACILITY":"Yankee Springs Recreation Area","Camp_type":"Equestrian","TOTAL_SITE":1,"ADA_SITES":0,"name":"Yankee Springs Recreation Area  ","Ownership":"State","Management":"DNR","Surface":"Dirt","Use_":"Recreation","Condition":"Unknown","Lat":42.6005155,"Long":-85.47199186},"geometry":{"type":"Point","coordinates":[-85.47199704238272,42.60052359428847]}},{"type":"Feature","properties":{"OBJECTID":7633,"Type":"Campground","Detail_Type":"State Park","DISTRICT":"Gaylord","COUNTY":"Charlevoix","FACILITY":"Young State Park","Camp_type":"Modern","TOTAL_SITE":148,"ADA_SITES":0,"name":"Young State Park Spruce","Ownership":"State","Management":"DNR","Surface":"Dirt","Use_":"Recreation","Condition":"Unknown","Lat":45.23820315,"Long":-85.05653923},"geometry":{"type":"Point","coordinates":[-85.05654456741733,45.238211709923725]}},{"type":"Feature","properties":{"OBJECTID":7634,"Type":"Campground","Detail_Type":"State Park","DISTRICT":"Gaylord","COUNTY":"Charlevoix","FACILITY":"Young State Park","Camp_type":"Modern","TOTAL_SITE":51,"ADA_SITES":3,"name":"Young State Park Oak","Ownership":"State","Management":"DNR","Surface":"Dirt","Use_":"Recreation","Condition":"Unknown","Lat":45.23553571,"Long":-85.0614468},"geometry":{"type":"Point","coordinates":[-85.0614521365341,45.23554426078892]}},{"type":"Feature","properties":{"OBJECTID":7635,"Type":"Campground","Detail_Type":"State Park","DISTRICT":"Gaylord","COUNTY":"Charlevoix","FACILITY":"Young State Park","Camp_type":"Modern","TOTAL_SITE":41,"ADA_SITES":5,"name":"Young State Park Terrace","Ownership":"State","Management":"DNR","Surface":"Dirt","Use_":"Recreation","Condition":"Unknown","Lat":45.23411152,"Long":-85.0587467},"geometry":{"type":"Point","coordinates":[-85.0587520357441,45.23412007183624]}}]}